[
  {
    "numberPlate": "ANDARE",
    "numberOfSeats": 8,
    "location": {
      "latitude": 40.769,
      "longitude": -73.9549
    },
    "driver": {
      "name": "Howard Ingram",
      "phone": "763883994"
    },
    "status": "AVAILABLE"
  },
  {
    "numberPlate": "1TWIN",
    "numberOfSeats": 2,
    "location": {
      "latitude": 40.7267,
      "longitude": -74.0345
    },
    "driver": {
      "name": "Payton Rivera",
      "phone": "785041844"
    },
    "status": "AVAILABLE"
  },
  {
    "numberPlate": "11VROD",
    "numberOfSeats": 8,
    "location": {
      "latitude": 40.7316,
      "longitude": -73.9873
    },
    "driver": {
      "name": "Kasey Sosa",
      "phone": "233585329"
    },
    "status": "AVAILABLE"
  },
  {
    "numberPlate": "4SKNMC",
    "numberOfSeats": 8,
    "location": {
      "latitude": 40.7588,
      "longitude": -73.9776
    },
    "driver": {
      "name": "Annalise Vasquez",
      "phone": "532671147"
    },
    "status": "AVAILABLE"
  },
  {
    "numberPlate": "7IRON6",
    "numberOfSeats": 2,
    "location": {
      "latitude": 40.7594,
      "longitude": -73.9722
    },
    "driver": {
      "name": "Guadalupe Charles",
      "phone": "976073548"
    },
    "status": "AVAILABLE"
  },
  {
    "numberPlate": "FINALI",
    "numberOfSeats": 6,
    "location": {
      "latitude": 40.7383,
      "longitude": -74.0403
    },
    "driver": {
      "name": "Leila Acosta",
      "phone": "981047676"
    },
    "status": "AVAILABLE"
  },
  {
    "numberPlate": "GOKEY",
    "numberOfSeats": 4,
    "location": {
      "latitude": 40.7223,
      "longitude": -73.9887
    },
    "driver": {
      "name": "Rafael Lopez",
      "phone": "573006056"
    },
    "status": "BOOKED"
  },
  {
    "numberPlate": "TLR",
    "numberOfSeats": 8,
    "location": {
      "latitude": 40.762,
      "longitude": -73.979
    },
    "driver": {
      "name": "Mckenzie Cox",
      "phone": "578941319"
    },
    "status": "AVAILABLE"
  },
  {
    "numberPlate": "TRM",
    "numberOfSeats": 2,
    "location": {
      "latitude": 40.7524,
      "longitude": -73.996
    },
    "driver": {
      "name": "Carson Gibson",
      "phone": "552074398"
    },
    "status": "AVAILABLE"
  },
  {
    "numberPlate": "G1DBE",
    "numberOfSeats": 4,
    "location": {
      "latitude": 40.7575,
      "longitude": -73.9846
    },
    "driver": {
      "name": "Ruby Finley",
      "phone": "247444470"
    },
    "status": "AVAILABLE"
  },
  {
    "numberPlate": "UBPHD",
    "numberOfSeats": 4,
    "location": {
      "latitude": 40.7256,
      "longitude": -73.9869
    },
    "driver": {
      "name": "Camren Mclaughlin",
      "phone": "219949522"
    },
    "status": "AVAILABLE"
  },
  {
    "numberPlate": "CCNMO",
    "numberOfSeats": 4,
    "location": {
      "latitude": 40.7591,
      "longitude": -73.9684
    },
    "driver": {
      "name": "Freddy Benjamin",
      "phone": "230023643"
    },
    "status": "BOOKED"
  },
  {
    "numberPlate": "CEF1A1",
    "numberOfSeats": 8,
    "location": {
      "latitude": 40.7271,
      "longitude": -73.9803
    },
    "driver": {
      "name": "Slade Baker",
      "phone": "649686172"
    },
    "status": "BOOKED"
  },
  {
    "numberPlate": "VSPA",
    "numberOfSeats": 4,
    "location": {
      "latitude": 40.6463,
      "longitude": -73.7896
    },
    "driver": {
      "name": "Corey Case",
      "phone": "782760122"
    },
    "status": "BOOKED"
  },
  {
    "numberPlate": "WS28",
    "numberOfSeats": 6,
    "location": {
      "latitude": 40.7564,
      "longitude": -73.9167
    },
    "driver": {
      "name": "Aden Sims",
      "phone": "843144451"
    },
    "status": "BOOKED"
  },
  {
    "numberPlate": "DASH2",
    "numberOfSeats": 2,
    "location": {
      "latitude": 40.7666,
      "longitude": -73.9531
    },
    "driver": {
      "name": "Jaydan Armstrong",
      "phone": "732869905"
    },
    "status": "BOOKED"
  },
  {
    "numberPlate": "ELIE",
    "numberOfSeats": 4,
    "location": {
      "latitude": 40.758,
      "longitude": -73.9761
    },
    "driver": {
      "name": "Amber Erickson",
      "phone": "819267794"
    },
    "status": "BOOKED"
  },
  {
    "numberPlate": "2CHARM",
    "numberOfSeats": 6,
    "location": {
      "latitude": 40.7238,
      "longitude": -73.9821
    },
    "driver": {
      "name": "Lucia Parker",
      "phone": "429030522"
    },
    "status": "BOOKED"
  },
  {
    "numberPlate": "2TWINS",
    "numberOfSeats": 2,
    "location": {
      "latitude": 40.7531,
      "longitude": -74.0039
    },
    "driver": {
      "name": "Titus Terrell",
      "phone": "579749303"
    },
    "status": "BOOKED"
  },
  {
    "numberPlate": "K2JFK",
    "numberOfSeats": 4,
    "location": {
      "latitude": 40.7389,
      "longitude": -74.0393
    },
    "driver": {
      "name": "Uriah Lynn",
      "phone": "647898282"
    },
    "status": "AVAILABLE"
  },
  {
    "numberPlate": "2002A",
    "numberOfSeats": 4,
    "location": {
      "latitude": 40.7619,
      "longitude": -73.9715
    },
    "driver": {
      "name": "Salvador Kane",
      "phone": "394724974"
    },
    "status": "AVAILABLE"
  },
  {
    "numberPlate": "4LOU4",
    "numberOfSeats": 2,
    "location": {
      "latitude": 40.753,
      "longitude": -74.0042
    },
    "driver": {
      "name": "Morgan Pierce",
      "phone": "513949343"
    },
    "status": "AVAILABLE"
  },
  {
    "numberPlate": "4LUCK",
    "numberOfSeats": 2,
    "location": {
      "latitude": 40.6561,
      "longitude": -73.9531
    },
    "driver": {
      "name": "Cason Hatfield",
      "phone": "864990150"
    },
    "status": "AVAILABLE"
  },
  {
    "numberPlate": "77OH7",
    "numberOfSeats": 6,
    "location": {
      "latitude": 40.725,
      "longitude": -73.9844
    },
    "driver": {
      "name": "Elise Lawrence",
      "phone": "414445441"
    },
    "status": "AVAILABLE"
  },
  {
    "numberPlate": "ML350",
    "numberOfSeats": 2,
    "location": {
      "latitude": 40.695,
      "longitude": -74.1783
    },
    "driver": {
      "name": "Eddie Ayers",
      "phone": "422127333"
    },
    "status": "BOOKED"
  },
  {
    "numberPlate": "MMFP",
    "numberOfSeats": 6,
    "location": {
      "latitude": 40.9859,
      "longitude": -74.1578
    },
    "driver": {
      "name": "Rachel Garrison",
      "phone": "612666315"
    },
    "status": "AVAILABLE"
  },
  {
    "numberPlate": "MOYER",
    "numberOfSeats": 6,
    "location": {
      "latitude": 40.6879,
      "longitude": -74.1814
    },
    "driver": {
      "name": "Kadence Morrison",
      "phone": "336802560"
    },
    "status": "BOOKED"
  },
  {
    "numberPlate": "NIPA",
    "numberOfSeats": 4,
    "location": {
      "latitude": 40.6878,
      "longitude": -74.1816
    },
    "driver": {
      "name": "Tatiana Petersen",
      "phone": "713933145"
    },
    "status": "AVAILABLE"
  },
  {
    "numberPlate": "NYVP2",
    "numberOfSeats": 2,
    "location": {
      "latitude": 40.7234,
      "longitude": -73.9974
    },
    "driver": {
      "name": "Jaiden Fleming",
      "phone": "334083309"
    },
    "status": "BOOKED"
  },
  {
    "numberPlate": "NYY347",
    "numberOfSeats": 6,
    "location": {
      "latitude": 40.7336,
      "longitude": -73.99
    },
    "driver": {
      "name": "Frances Pratt",
      "phone": "941355820"
    },
    "status": "BOOKED"
  },
  {
    "numberPlate": "PR1999",
    "numberOfSeats": 6,
    "location": {
      "latitude": 40.7141,
      "longitude": -74.0094
    },
    "driver": {
      "name": "Meadow Clements",
      "phone": "620294312"
    },
    "status": "BOOKED"
  },
  {
    "numberPlate": "PURR",
    "numberOfSeats": 4,
    "location": {
      "latitude": 40.7893,
      "longitude": -73.9709
    },
    "driver": {
      "name": "Aiyana Marks",
      "phone": "639614333"
    },
    "status": "BOOKED"
  },
  {
    "numberPlate": "AACVI",
    "numberOfSeats": 4,
    "location": {
      "latitude": 40.7747,
      "longitude": -73.991
    },
    "driver": {
      "name": "Georgia Cooper",
      "phone": "636255268"
    },
    "status": "BOOKED"
  },
  {
    "numberPlate": "ABL34",
    "numberOfSeats": 6,
    "location": {
      "latitude": 40.7689,
      "longitude": -73.9876
    },
    "driver": {
      "name": "Trenton Cooley",
      "phone": "353694651"
    },
    "status": "BOOKED"
  },
  {
    "numberPlate": "SJPCADET",
    "numberOfSeats": 4,
    "location": {
      "latitude": 40.7744,
      "longitude": -74.0149
    },
    "driver": {
      "name": "Maxim Frank",
      "phone": "814682881"
    },
    "status": "AVAILABLE"
  },
  {
    "numberPlate": "SKINSCHL",
    "numberOfSeats": 2,
    "location": {
      "latitude": 40.7393,
      "longitude": -73.9974
    },
    "driver": {
      "name": "Jeffery Fleming",
      "phone": "398233287"
    },
    "status": "AVAILABLE"
  },
  {
    "numberPlate": "SKOERTS",
    "numberOfSeats": 6,
    "location": {
      "latitude": 40.7776,
      "longitude": -73.9752
    },
    "driver": {
      "name": "Jessie Farley",
      "phone": "723517186"
    },
    "status": "BOOKED"
  },
  {
    "numberPlate": "EZEL07",
    "numberOfSeats": 2,
    "location": {
      "latitude": 40.6483,
      "longitude": -73.7829
    },
    "driver": {
      "name": "Edwin Blair",
      "phone": "648214808"
    },
    "status": "AVAILABLE"
  },
  {
    "numberPlate": "SLOVE",
    "numberOfSeats": 8,
    "location": {
      "latitude": 40.6907,
      "longitude": -74.1782
    },
    "driver": {
      "name": "Helen Guerrero",
      "phone": "335717422"
    },
    "status": "BOOKED"
  },
  {
    "numberPlate": "SMOVADO",
    "numberOfSeats": 6,
    "location": {
      "latitude": 40.7217,
      "longitude": -73.9875
    },
    "driver": {
      "name": "Dante Arnold",
      "phone": "788243294"
    },
    "status": "AVAILABLE"
  },
  {
    "numberPlate": "SNIK613",
    "numberOfSeats": 4,
    "location": {
      "latitude": 40.7651,
      "longitude": -73.9632
    },
    "driver": {
      "name": "Jaylin Mccall",
      "phone": "132644643"
    },
    "status": "AVAILABLE"
  },
  {
    "numberPlate": "ALL4RISA",
    "numberOfSeats": 8,
    "location": {
      "latitude": 40.7437,
      "longitude": -73.9985
    },
    "driver": {
      "name": "Madalynn Morrison",
      "phone": "937635706"
    },
    "status": "AVAILABLE"
  },
  {
    "numberPlate": "SONIDO1",
    "numberOfSeats": 4,
    "location": {
      "latitude": 40.7605,
      "longitude": -73.978
    },
    "driver": {
      "name": "Layne Buchanan",
      "phone": "490195518"
    },
    "status": "BOOKED"
  },
  {
    "numberPlate": "ALWL",
    "numberOfSeats": 6,
    "location": {
      "latitude": 40.743,
      "longitude": -74.0301
    },
    "driver": {
      "name": "Layne Tanner",
      "phone": "265595010"
    },
    "status": "AVAILABLE"
  },
  {
    "numberPlate": "AMTF168",
    "numberOfSeats": 2,
    "location": {
      "latitude": 40.743,
      "longitude": -74.0301
    },
    "driver": {
      "name": "Nicholas Ochoa",
      "phone": "567845431"
    },
    "status": "BOOKED"
  },
  {
    "numberPlate": "SPYGURL",
    "numberOfSeats": 8,
    "location": {
      "latitude": 40.7423,
      "longitude": -74.0371
    },
    "driver": {
      "name": "Giovanny Bowman",
      "phone": "626103138"
    },
    "status": "AVAILABLE"
  },
  {
    "numberPlate": "FEARJAH",
    "numberOfSeats": 8,
    "location": {
      "latitude": 40.7236,
      "longitude": -74.0037
    },
    "driver": {
      "name": "Kaylyn Frost",
      "phone": "815391083"
    },
    "status": "BOOKED"
  },
  {
    "numberPlate": "ARMYNG",
    "numberOfSeats": 4,
    "location": {
      "latitude": 40.7723,
      "longitude": -73.9527
    },
    "driver": {
      "name": "Maritza Horn",
      "phone": "878823786"
    },
    "status": "AVAILABLE"
  },
  {
    "numberPlate": "FLASHBK2",
    "numberOfSeats": 4,
    "location": {
      "latitude": 40.7574,
      "longitude": -73.9862
    },
    "driver": {
      "name": "Brandon Hodges",
      "phone": "963614187"
    },
    "status": "AVAILABLE"
  },
  {
    "numberPlate": "FORDPOWR",
    "numberOfSeats": 2,
    "location": {
      "latitude": 40.7838,
      "longitude": -73.9504
    },
    "driver": {
      "name": "Grant Peck",
      "phone": "531689224"
    },
    "status": "BOOKED"
  },
  {
    "numberPlate": "A75",
    "numberOfSeats": 2,
    "location": {
      "latitude": 40.7711,
      "longitude": -73.9871
    },
    "driver": {
      "name": "David Stafford",
      "phone": "410605121"
    },
    "status": "BOOKED"
  },
  {
    "numberPlate": "A752",
    "numberOfSeats": 6,
    "location": {
      "latitude": 40.7571,
      "longitude": -73.9726
    },
    "driver": {
      "name": "Tori Diaz",
      "phone": "737761159"
    },
    "status": "AVAILABLE"
  },
  {
    "numberPlate": "BABYEVO",
    "numberOfSeats": 8,
    "location": {
      "latitude": 40.7442,
      "longitude": -73.9854
    },
    "driver": {
      "name": "Gavin Dickerson",
      "phone": "384452572"
    },
    "status": "BOOKED"
  },
  {
    "numberPlate": "F1LEONE",
    "numberOfSeats": 8,
    "location": {
      "latitude": 40.7166,
      "longitude": -74.0144
    },
    "driver": {
      "name": "Ashleigh Mueller",
      "phone": "436509402"
    },
    "status": "AVAILABLE"
  },
  {
    "numberPlate": "BAM641",
    "numberOfSeats": 8,
    "location": {
      "latitude": 40.7507,
      "longitude": -73.9703
    },
    "driver": {
      "name": "Shania Wise",
      "phone": "316692278"
    },
    "status": "BOOKED"
  },
  {
    "numberPlate": "TCAP",
    "numberOfSeats": 2,
    "location": {
      "latitude": 40.7337,
      "longitude": -73.9979
    },
    "driver": {
      "name": "Adrien Bernard",
      "phone": "133887875"
    },
    "status": "BOOKED"
  },
  {
    "numberPlate": "TECHNK",
    "numberOfSeats": 8,
    "location": {
      "latitude": 40.7236,
      "longitude": -74.0111
    },
    "driver": {
      "name": "Carla Marshall",
      "phone": "607377268"
    },
    "status": "BOOKED"
  },
  {
    "numberPlate": "BELCOO",
    "numberOfSeats": 6,
    "location": {
      "latitude": 40.7151,
      "longitude": -74.0464
    },
    "driver": {
      "name": "Ryan Alvarez",
      "phone": "637950308"
    },
    "status": "BOOKED"
  },
  {
    "numberPlate": "BENNICK",
    "numberOfSeats": 4,
    "location": {
      "latitude": 40.7701,
      "longitude": -73.9588
    },
    "driver": {
      "name": "Prince Maynard",
      "phone": "965267928"
    },
    "status": "AVAILABLE"
  },
  {
    "numberPlate": "GOAUBRN",
    "numberOfSeats": 2,
    "location": {
      "latitude": 40.86,
      "longitude": -73.9142
    },
    "driver": {
      "name": "Landon Oliver",
      "phone": "303035275"
    },
    "status": "AVAILABLE"
  },
  {
    "numberPlate": "TLUVSZ",
    "numberOfSeats": 8,
    "location": {
      "latitude": 40.7555,
      "longitude": -73.9729
    },
    "driver": {
      "name": "Jaylynn Powers",
      "phone": "193079789"
    },
    "status": "AVAILABLE"
  },
  {
    "numberPlate": "GPASLV",
    "numberOfSeats": 2,
    "location": {
      "latitude": 40.7249,
      "longitude": -74.0355
    },
    "driver": {
      "name": "Cristopher Mueller",
      "phone": "837301366"
    },
    "status": "BOOKED"
  },
  {
    "numberPlate": "TOOHAPPY",
    "numberOfSeats": 2,
    "location": {
      "latitude": 40.6193,
      "longitude": -74.157
    },
    "driver": {
      "name": "Heath Haley",
      "phone": "995658795"
    },
    "status": "BOOKED"
  },
  {
    "numberPlate": "TRACKER6",
    "numberOfSeats": 8,
    "location": {
      "latitude": 40.7753,
      "longitude": -73.978
    },
    "driver": {
      "name": "Yuliana Maxwell",
      "phone": "381186570"
    },
    "status": "BOOKED"
  },
  {
    "numberPlate": "GTA1989",
    "numberOfSeats": 6,
    "location": {
      "latitude": 40.7204,
      "longitude": -73.9545
    },
    "driver": {
      "name": "Sara Morgan",
      "phone": "148765577"
    },
    "status": "BOOKED"
  },
  {
    "numberPlate": "TTRBO7",
    "numberOfSeats": 2,
    "location": {
      "latitude": 40.7772,
      "longitude": -73.9595
    },
    "driver": {
      "name": "Tamia Jacobs",
      "phone": "416160839"
    },
    "status": "BOOKED"
  },
  {
    "numberPlate": "BPILLA",
    "numberOfSeats": 6,
    "location": {
      "latitude": 40.7651,
      "longitude": -74.082
    },
    "driver": {
      "name": "Jorden Berry",
      "phone": "739105658"
    },
    "status": "BOOKED"
  },
  {
    "numberPlate": "TWICKS",
    "numberOfSeats": 8,
    "location": {
      "latitude": 40.74,
      "longitude": -73.9879
    },
    "driver": {
      "name": "Chanel Wu",
      "phone": "904700785"
    },
    "status": "BOOKED"
  },
  {
    "numberPlate": "CAELA",
    "numberOfSeats": 4,
    "location": {
      "latitude": 40.7741,
      "longitude": -73.9568
    },
    "driver": {
      "name": "Trevor Simon",
      "phone": "208838135"
    },
    "status": "BOOKED"
  },
  {
    "numberPlate": "UTOG134",
    "numberOfSeats": 8,
    "location": {
      "latitude": 40.7599,
      "longitude": -73.9944
    },
    "driver": {
      "name": "Alisson Osborn",
      "phone": "649955150"
    },
    "status": "AVAILABLE"
  },
  {
    "numberPlate": "HI5NY",
    "numberOfSeats": 6,
    "location": {
      "latitude": 40.7531,
      "longitude": -74.0039
    },
    "driver": {
      "name": "Kaia Jefferson",
      "phone": "547165763"
    },
    "status": "BOOKED"
  },
  {
    "numberPlate": "CAMLOT13",
    "numberOfSeats": 4,
    "location": {
      "latitude": 40.7791,
      "longitude": -73.9623
    },
    "driver": {
      "name": "Moses Lee",
      "phone": "643344908"
    },
    "status": "BOOKED"
  },
  {
    "numberPlate": "CAMLOT14",
    "numberOfSeats": 2,
    "location": {
      "latitude": 40.7382,
      "longitude": -74.0033
    },
    "driver": {
      "name": "Eleanor Gallegos",
      "phone": "429970709"
    },
    "status": "BOOKED"
  },
  {
    "numberPlate": "VALDIZON",
    "numberOfSeats": 4,
    "location": {
      "latitude": 40.7391,
      "longitude": -73.9989
    },
    "driver": {
      "name": "Esther Baxter",
      "phone": "633672346"
    },
    "status": "BOOKED"
  },
  {
    "numberPlate": "VEENDAM",
    "numberOfSeats": 2,
    "location": {
      "latitude": 40.7806,
      "longitude": -73.982
    },
    "driver": {
      "name": "Jacoby Sullivan",
      "phone": "226220676"
    },
    "status": "BOOKED"
  },
  {
    "numberPlate": "VERGASER",
    "numberOfSeats": 6,
    "location": {
      "latitude": 40.7322,
      "longitude": -73.9863
    },
    "driver": {
      "name": "Bobby Trujillo",
      "phone": "307052370"
    },
    "status": "BOOKED"
  },
  {
    "numberPlate": "HOTGTR",
    "numberOfSeats": 6,
    "location": {
      "latitude": 40.7703,
      "longitude": -73.966
    },
    "driver": {
      "name": "Carter Arnold",
      "phone": "761793262"
    },
    "status": "BOOKED"
  },
  {
    "numberPlate": "CCCNY",
    "numberOfSeats": 4,
    "location": {
      "latitude": 40.7221,
      "longitude": -74.0018
    },
    "driver": {
      "name": "Elijah Randolph",
      "phone": "146537414"
    },
    "status": "AVAILABLE"
  },
  {
    "numberPlate": "CEYLON1",
    "numberOfSeats": 2,
    "location": {
      "latitude": 40.7588,
      "longitude": -73.9895
    },
    "driver": {
      "name": "Branson Mckinney",
      "phone": "450488109"
    },
    "status": "AVAILABLE"
  },
  {
    "numberPlate": "VRAJ",
    "numberOfSeats": 6,
    "location": {
      "latitude": 40.7677,
      "longitude": -73.9656
    },
    "driver": {
      "name": "Regina Schaefer",
      "phone": "959736408"
    },
    "status": "AVAILABLE"
  },
  {
    "numberPlate": "HYEVLCTY",
    "numberOfSeats": 2,
    "location": {
      "latitude": 40.7404,
      "longitude": -74.0076
    },
    "driver": {
      "name": "Kasey Sims",
      "phone": "413270509"
    },
    "status": "AVAILABLE"
  },
  {
    "numberPlate": "CKG",
    "numberOfSeats": 4,
    "location": {
      "latitude": 40.7679,
      "longitude": -73.9599
    },
    "driver": {
      "name": "Bridget George",
      "phone": "740796954"
    },
    "status": "BOOKED"
  },
  {
    "numberPlate": "ILVYRKES",
    "numberOfSeats": 6,
    "location": {
      "latitude": 40.7694,
      "longitude": -73.9852
    },
    "driver": {
      "name": "Keyla Tyler",
      "phone": "640572068"
    },
    "status": "BOOKED"
  },
  {
    "numberPlate": "IMSPRTCS",
    "numberOfSeats": 2,
    "location": {
      "latitude": 40.7858,
      "longitude": -73.9546
    },
    "driver": {
      "name": "Madison Beasley",
      "phone": "784028944"
    },
    "status": "AVAILABLE"
  },
  {
    "numberPlate": "COOLMYK",
    "numberOfSeats": 6,
    "location": {
      "latitude": 40.7742,
      "longitude": -73.9491
    },
    "driver": {
      "name": "Marina Galvan",
      "phone": "913413099"
    },
    "status": "BOOKED"
  },
  {
    "numberPlate": "COYOTEHP",
    "numberOfSeats": 2,
    "location": {
      "latitude": 40.7703,
      "longitude": -73.95
    },
    "driver": {
      "name": "Grayson Baxter",
      "phone": "657602909"
    },
    "status": "AVAILABLE"
  },
  {
    "numberPlate": "CULTR",
    "numberOfSeats": 2,
    "location": {
      "latitude": 40.7614,
      "longitude": -73.9997
    },
    "driver": {
      "name": "Lilianna Rivas",
      "phone": "768599373"
    },
    "status": "BOOKED"
  },
  {
    "numberPlate": "JAGSS100",
    "numberOfSeats": 2,
    "location": {
      "latitude": 40.793,
      "longitude": -73.9749
    },
    "driver": {
      "name": "Sean Underwood",
      "phone": "389580069"
    },
    "status": "BOOKED"
  },
  {
    "numberPlate": "XTOPHERX",
    "numberOfSeats": 4,
    "location": {
      "latitude": 40.7231,
      "longitude": -73.9442
    },
    "driver": {
      "name": "Lily Combs",
      "phone": "323543340"
    },
    "status": "BOOKED"
  },
  {
    "numberPlate": "XXFJXX",
    "numberOfSeats": 4,
    "location": {
      "latitude": 40.7874,
      "longitude": -73.9545
    },
    "driver": {
      "name": "Quentin Murphy",
      "phone": "150578760"
    },
    "status": "BOOKED"
  },
  {
    "numberPlate": "JAZZ4CB",
    "numberOfSeats": 8,
    "location": {
      "latitude": 40.7689,
      "longitude": -73.9812
    },
    "driver": {
      "name": "Ann Compton",
      "phone": "508250247"
    },
    "status": "BOOKED"
  },
  {
    "numberPlate": "DANYJETS",
    "numberOfSeats": 6,
    "location": {
      "latitude": 40.7789,
      "longitude": -73.9557
    },
    "driver": {
      "name": "Cameron Gates",
      "phone": "306302601"
    },
    "status": "BOOKED"
  },
  {
    "numberPlate": "YUHAN1",
    "numberOfSeats": 4,
    "location": {
      "latitude": 40.7271,
      "longitude": -74.0054
    },
    "driver": {
      "name": "Jacquelyn Mcmillan",
      "phone": "766300376"
    },
    "status": "BOOKED"
  },
  {
    "numberPlate": "JGG1",
    "numberOfSeats": 6,
    "location": {
      "latitude": 40.7877,
      "longitude": -73.973
    },
    "driver": {
      "name": "Lauryn Gutierrez",
      "phone": "971111399"
    },
    "status": "BOOKED"
  },
  {
    "numberPlate": "JISJR",
    "numberOfSeats": 8,
    "location": {
      "latitude": 40.7255,
      "longitude": -74.0092
    },
    "driver": {
      "name": "Tommy English",
      "phone": "666498245"
    },
    "status": "BOOKED"
  },
  {
    "numberPlate": "DERJAGER",
    "numberOfSeats": 2,
    "location": {
      "latitude": 40.7653,
      "longitude": -73.9723
    },
    "driver": {
      "name": "Stanley Cooley",
      "phone": "973032901"
    },
    "status": "BOOKED"
  },
  {
    "numberPlate": "JML28",
    "numberOfSeats": 8,
    "location": {
      "latitude": 40.7644,
      "longitude": -73.9769
    },
    "driver": {
      "name": "Kaylynn Wong",
      "phone": "860499735"
    },
    "status": "AVAILABLE"
  },
  {
    "numberPlate": "DINOGT",
    "numberOfSeats": 6,
    "location": {
      "latitude": 40.7726,
      "longitude": -73.9532
    },
    "driver": {
      "name": "Jaylin Craig",
      "phone": "463332002"
    },
    "status": "AVAILABLE"
  }
]